$GPGGA,034401.042,5502.632,N,08302.791,E,1,12,1.0,0.0,M,0.0,M,,*69
$GPGSA,A,3,01,02,03,04,05,06,07,08,09,10,11,12,1.0,1.0,1.0*30
$GPRMC,034401.042,A,5502.632,N,08302.791,E,038.9,260.0,300323,000.0,W*7A
$GPGGA,034402.042,5502.629,N,08302.773,E,1,12,1.0,0.0,M,0.0,M,,*6C
$GPGSA,A,3,01,02,03,04,05,06,07,08,09,10,11,12,1.0,1.0,1.0*30
$GPRMC,034402.042,A,5502.629,N,08302.773,E,038.9,260.0,300323,000.0,W*7F
$GPGGA,034403.042,5502.626,N,08302.755,E,1,12,1.0,0.0,M,0.0,M,,*66
$GPGSA,A,3,01,02,03,04,05,06,07,08,09,10,11,12,1.0,1.0,1.0*30
$GPRMC,034403.042,A,5502.626,N,08302.755,E,038.9,260.0,300323,000.0,W*75
$GPGGA,034404.042,5502.622,N,08302.737,E,1,12,1.0,0.0,M,0.0,M,,*61
$GPGSA,A,3,01,02,03,04,05,06,07,08,09,10,11,12,1.0,1.0,1.0*30
$GPRMC,034404.042,A,5502.622,N,08302.737,E,038.9,260.0,300323,000.0,W*72
$GPGGA,034405.042,5502.619,N,08302.719,E,1,12,1.0,0.0,M,0.0,M,,*64
$GPGSA,A,3,01,02,03,04,05,06,07,08,09,10,11,12,1.0,1.0,1.0*30
$GPRMC,034405.042,A,5502.619,N,08302.719,E,038.9,260.0,300323,000.0,W*77
$GPGGA,034406.042,5502.616,N,08302.701,E,1,12,1.0,0.0,M,0.0,M,,*61
$GPGSA,A,3,01,02,03,04,05,06,07,08,09,10,11,12,1.0,1.0,1.0*30
$GPRMC,034406.042,A,5502.616,N,08302.701,E,038.9,260.0,300323,000.0,W*72
$GPGGA,034407.042,5502.613,N,08302.683,E,1,12,1.0,0.0,M,0.0,M,,*6E
$GPGSA,A,3,01,02,03,04,05,06,07,08,09,10,11,12,1.0,1.0,1.0*30
$GPRMC,034407.042,A,5502.613,N,08302.683,E,038.9,260.0,300323,000.0,W*7D
$GPGGA,034408.042,5502.610,N,08302.665,E,1,12,1.0,0.0,M,0.0,M,,*6A
$GPGSA,A,3,01,02,03,04,05,06,07,08,09,10,11,12,1.0,1.0,1.0*30
$GPRMC,034408.042,A,5502.610,N,08302.665,E,038.9,260.0,300323,000.0,W*79
$GPGGA,034409.042,5502.607,N,08302.647,E,1,12,1.0,0.0,M,0.0,M,,*6D
$GPGSA,A,3,01,02,03,04,05,06,07,08,09,10,11,12,1.0,1.0,1.0*30
$GPRMC,034409.042,A,5502.607,N,08302.647,E,038.9,260.0,300323,000.0,W*7E
$GPGGA,034410.042,5502.603,N,08302.629,E,1,12,1.0,0.0,M,0.0,M,,*69
$GPGSA,A,3,01,02,03,04,05,06,07,08,09,10,11,12,1.0,1.0,1.0*30
$GPRMC,034410.042,A,5502.603,N,08302.629,E,038.9,260.0,300323,000.0,W*7A
$GPGGA,034411.042,5502.600,N,08302.611,E,1,12,1.0,0.0,M,0.0,M,,*60
$GPGSA,A,3,01,02,03,04,05,06,07,08,09,10,11,12,1.0,1.0,1.0*30
$GPRMC,034411.042,A,5502.600,N,08302.611,E,038.9,260.0,300323,000.0,W*73
$GPGGA,034412.042,5502.597,N,08302.593,E,1,12,1.0,0.0,M,0.0,M,,*67
$GPGSA,A,3,01,02,03,04,05,06,07,08,09,10,11,12,1.0,1.0,1.0*30
$GPRMC,034412.042,A,5502.597,N,08302.593,E,038.9,260.0,300323,000.0,W*74
$GPGGA,034413.042,5502.594,N,08302.575,E,1,12,1.0,0.0,M,0.0,M,,*6D
$GPGSA,A,3,01,02,03,04,05,06,07,08,09,10,11,12,1.0,1.0,1.0*30
$GPRMC,034413.042,A,5502.594,N,08302.575,E,038.9,260.0,300323,000.0,W*7E
$GPGGA,034414.042,5502.591,N,08302.557,E,1,12,1.0,0.0,M,0.0,M,,*6F
$GPGSA,A,3,01,02,03,04,05,06,07,08,09,10,11,12,1.0,1.0,1.0*30
$GPRMC,034414.042,A,5502.591,N,08302.557,E,038.9,260.0,300323,000.0,W*7C
$GPGGA,034415.042,5502.588,N,08302.539,E,1,12,1.0,0.0,M,0.0,M,,*6E
$GPGSA,A,3,01,02,03,04,05,06,07,08,09,10,11,12,1.0,1.0,1.0*30
$GPRMC,034415.042,A,5502.588,N,08302.539,E,038.9,260.0,300323,000.0,W*7D
$GPGGA,034416.042,5502.584,N,08302.521,E,1,12,1.0,0.0,M,0.0,M,,*68
$GPGSA,A,3,01,02,03,04,05,06,07,08,09,10,11,12,1.0,1.0,1.0*30
$GPRMC,034416.042,A,5502.584,N,08302.521,E,038.9,260.0,300323,000.0,W*7B
$GPGGA,034417.042,5502.581,N,08302.503,E,1,12,1.0,0.0,M,0.0,M,,*6C
$GPGSA,A,3,01,02,03,04,05,06,07,08,09,10,11,12,1.0,1.0,1.0*30
$GPRMC,034417.042,A,5502.581,N,08302.503,E,038.9,260.0,300323,000.0,W*7F
$GPGGA,034418.042,5502.578,N,08302.485,E,1,12,1.0,0.0,M,0.0,M,,*6A
$GPGSA,A,3,01,02,03,04,05,06,07,08,09,10,11,12,1.0,1.0,1.0*30
$GPRMC,034418.042,A,5502.578,N,08302.485,E,038.9,260.0,300323,000.0,W*79
$GPGGA,034419.042,5502.575,N,08302.467,E,1,12,1.0,0.0,M,0.0,M,,*6A
$GPGSA,A,3,01,02,03,04,05,06,07,08,09,10,11,12,1.0,1.0,1.0*30
$GPRMC,034419.042,A,5502.575,N,08302.467,E,038.9,260.0,300323,000.0,W*79
$GPGGA,034420.042,5502.572,N,08302.449,E,1,12,1.0,0.0,M,0.0,M,,*6B
$GPGSA,A,3,01,02,03,04,05,06,07,08,09,10,11,12,1.0,1.0,1.0*30
$GPRMC,034420.042,A,5502.572,N,08302.449,E,038.9,260.0,300323,000.0,W*78
$GPGGA,034421.042,5502.568,N,08302.431,E,1,12,1.0,0.0,M,0.0,M,,*6E
$GPGSA,A,3,01,02,03,04,05,06,07,08,09,10,11,12,1.0,1.0,1.0*30
$GPRMC,034421.042,A,5502.568,N,08302.431,E,038.9,260.0,300323,000.0,W*7D
$GPGGA,034422.042,5502.565,N,08302.413,E,1,12,1.0,0.0,M,0.0,M,,*60
$GPGSA,A,3,01,02,03,04,05,06,07,08,09,10,11,12,1.0,1.0,1.0*30
$GPRMC,034422.042,A,5502.565,N,08302.413,E,038.9,260.0,300323,000.0,W*73
$GPGGA,034423.042,5502.562,N,08302.395,E,1,12,1.0,0.0,M,0.0,M,,*6F
$GPGSA,A,3,01,02,03,04,05,06,07,08,09,10,11,12,1.0,1.0,1.0*30
$GPRMC,034423.042,A,5502.562,N,08302.395,E,038.9,260.0,300323,000.0,W*7C
$GPGGA,034424.042,5502.559,N,08302.377,E,1,12,1.0,0.0,M,0.0,M,,*6C
$GPGSA,A,3,01,02,03,04,05,06,07,08,09,10,11,12,1.0,1.0,1.0*30
$GPRMC,034424.042,A,5502.559,N,08302.377,E,038.9,260.0,300323,000.0,W*7F
$GPGGA,034425.042,5502.556,N,08302.359,E,1,12,1.0,0.0,M,0.0,M,,*6E
$GPGSA,A,3,01,02,03,04,05,06,07,08,09,10,11,12,1.0,1.0,1.0*30
$GPRMC,034425.042,A,5502.556,N,08302.359,E,038.9,260.0,300323,000.0,W*7D
$GPGGA,034426.042,5502.553,N,08302.341,E,1,12,1.0,0.0,M,0.0,M,,*61
$GPGSA,A,3,01,02,03,04,05,06,07,08,09,10,11,12,1.0,1.0,1.0*30
$GPRMC,034426.042,A,5502.553,N,08302.341,E,038.9,260.0,300323,000.0,W*72
$GPGGA,034427.042,5502.549,N,08302.323,E,1,12,1.0,0.0,M,0.0,M,,*6F
$GPGSA,A,3,01,02,03,04,05,06,07,08,09,10,11,12,1.0,1.0,1.0*30
$GPRMC,034427.042,A,5502.549,N,08302.323,E,038.9,260.0,300323,000.0,W*7C
$GPGGA,034428.042,5502.546,N,08302.305,E,1,12,1.0,0.0,M,0.0,M,,*6B
$GPGSA,A,3,01,02,03,04,05,06,07,08,09,10,11,12,1.0,1.0,1.0*30
$GPRMC,034428.042,A,5502.546,N,08302.305,E,038.9,260.0,300323,000.0,W*78
$GPGGA,034429.042,5502.543,N,08302.287,E,1,12,1.0,0.0,M,0.0,M,,*64
$GPGSA,A,3,01,02,03,04,05,06,07,08,09,10,11,12,1.0,1.0,1.0*30
$GPRMC,034429.042,A,5502.543,N,08302.287,E,038.9,260.0,300323,000.0,W*77
$GPGGA,034430.042,5502.540,N,08302.269,E,1,12,1.0,0.0,M,0.0,M,,*6F
$GPGSA,A,3,01,02,03,04,05,06,07,08,09,10,11,12,1.0,1.0,1.0*30
$GPRMC,034430.042,A,5502.540,N,08302.269,E,038.9,260.0,300323,000.0,W*7C
$GPGGA,034431.042,5502.537,N,08302.251,E,1,12,1.0,0.0,M,0.0,M,,*65
$GPGSA,A,3,01,02,03,04,05,06,07,08,09,10,11,12,1.0,1.0,1.0*30
$GPRMC,034431.042,A,5502.537,N,08302.251,E,038.9,260.0,300323,000.0,W*76
$GPGGA,034432.042,5502.534,N,08302.233,E,1,12,1.0,0.0,M,0.0,M,,*61
$GPGSA,A,3,01,02,03,04,05,06,07,08,09,10,11,12,1.0,1.0,1.0*30
$GPRMC,034432.042,A,5502.534,N,08302.233,E,038.9,260.0,300323,000.0,W*72
$GPGGA,034433.042,5502.530,N,08302.215,E,1,12,1.0,0.0,M,0.0,M,,*60
$GPGSA,A,3,01,02,03,04,05,06,07,08,09,10,11,12,1.0,1.0,1.0*30
$GPRMC,034433.042,A,5502.530,N,08302.215,E,038.9,260.0,300323,000.0,W*73
$GPGGA,034434.042,5502.527,N,08302.197,E,1,12,1.0,0.0,M,0.0,M,,*68
$GPGSA,A,3,01,02,03,04,05,06,07,08,09,10,11,12,1.0,1.0,1.0*30
$GPRMC,034434.042,A,5502.527,N,08302.197,E,038.9,260.0,300323,000.0,W*7B
$GPGGA,034435.042,5502.524,N,08302.179,E,1,12,1.0,0.0,M,0.0,M,,*6A
$GPGSA,A,3,01,02,03,04,05,06,07,08,09,10,11,12,1.0,1.0,1.0*30
$GPRMC,034435.042,A,5502.524,N,08302.179,E,038.9,260.0,300323,000.0,W*79
$GPGGA,034436.042,5502.521,N,08302.161,E,1,12,1.0,0.0,M,0.0,M,,*65
$GPGSA,A,3,01,02,03,04,05,06,07,08,09,10,11,12,1.0,1.0,1.0*30
$GPRMC,034436.042,A,5502.521,N,08302.161,E,038.9,260.0,300323,000.0,W*76
$GPGGA,034437.042,5502.518,N,08302.143,E,1,12,1.0,0.0,M,0.0,M,,*6E
$GPGSA,A,3,01,02,03,04,05,06,07,08,09,10,11,12,1.0,1.0,1.0*30
$GPRMC,034437.042,A,5502.518,N,08302.143,E,038.9,260.0,300323,000.0,W*7D
$GPGGA,034438.042,5502.515,N,08302.125,E,1,12,1.0,0.0,M,0.0,M,,*6C
$GPGSA,A,3,01,02,03,04,05,06,07,08,09,10,11,12,1.0,1.0,1.0*30
$GPRMC,034438.042,A,5502.515,N,08302.125,E,038.9,260.0,300323,000.0,W*7F
$GPGGA,034439.042,5502.511,N,08302.107,E,1,12,1.0,0.0,M,0.0,M,,*69
$GPGSA,A,3,01,02,03,04,05,06,07,08,09,10,11,12,1.0,1.0,1.0*30
$GPRMC,034439.042,A,5502.511,N,08302.107,E,038.9,260.0,300323,000.0,W*7A
$GPGGA,034440.042,5502.508,N,08302.089,E,1,12,1.0,0.0,M,0.0,M,,*68
$GPGSA,A,3,01,02,03,04,05,06,07,08,09,10,11,12,1.0,1.0,1.0*30
$GPRMC,034440.042,A,5502.508,N,08302.089,E,038.9,260.0,300323,000.0,W*7B
$GPGGA,034441.042,5502.505,N,08302.071,E,1,12,1.0,0.0,M,0.0,M,,*63
$GPGSA,A,3,01,02,03,04,05,06,07,08,09,10,11,12,1.0,1.0,1.0*30
$GPRMC,034441.042,A,5502.505,N,08302.071,E,038.9,260.0,300323,000.0,W*70
$GPGGA,034442.042,5502.502,N,08302.053,E,1,12,1.0,0.0,M,0.0,M,,*67
$GPGSA,A,3,01,02,03,04,05,06,07,08,09,10,11,12,1.0,1.0,1.0*30
$GPRMC,034442.042,A,5502.502,N,08302.053,E,038.9,260.0,300323,000.0,W*74
$GPGGA,034443.042,5502.499,N,08302.035,E,1,12,1.0,0.0,M,0.0,M,,*65
$GPGSA,A,3,01,02,03,04,05,06,07,08,09,10,11,12,1.0,1.0,1.0*30
$GPRMC,034443.042,A,5502.499,N,08302.035,E,038.9,260.0,300323,000.0,W*76
$GPGGA,034444.042,5502.496,N,08302.017,E,1,12,1.0,0.0,M,0.0,M,,*6D
$GPGSA,A,3,01,02,03,04,05,06,07,08,09,10,11,12,1.0,1.0,1.0*30
$GPRMC,034444.042,A,5502.496,N,08302.017,E,038.9,260.0,300323,000.0,W*7E
$GPGGA,034445.042,5502.492,N,08301.999,E,1,12,1.0,0.0,M,0.0,M,,*64
$GPGSA,A,3,01,02,03,04,05,06,07,08,09,10,11,12,1.0,1.0,1.0*30
$GPRMC,034445.042,A,5502.492,N,08301.999,E,038.9,260.0,300323,000.0,W*77
$GPGGA,034446.042,5502.489,N,08301.981,E,1,12,1.0,0.0,M,0.0,M,,*64
$GPGSA,A,3,01,02,03,04,05,06,07,08,09,10,11,12,1.0,1.0,1.0*30
$GPRMC,034446.042,A,5502.489,N,08301.981,E,038.9,260.0,300323,000.0,W*77
$GPGGA,034447.042,5502.486,N,08301.963,E,1,12,1.0,0.0,M,0.0,M,,*66
$GPGSA,A,3,01,02,03,04,05,06,07,08,09,10,11,12,1.0,1.0,1.0*30
$GPRMC,034447.042,A,5502.486,N,08301.963,E,038.9,260.0,300323,000.0,W*75
$GPGGA,034448.042,5502.483,N,08301.945,E,1,12,1.0,0.0,M,0.0,M,,*68
$GPGSA,A,3,01,02,03,04,05,06,07,08,09,10,11,12,1.0,1.0,1.0*30
$GPRMC,034448.042,A,5502.483,N,08301.945,E,038.9,260.0,300323,000.0,W*7B
$GPGGA,034449.042,5502.480,N,08301.927,E,1,12,1.0,0.0,M,0.0,M,,*6E
$GPGSA,A,3,01,02,03,04,05,06,07,08,09,10,11,12,1.0,1.0,1.0*30
$GPRMC,034449.042,A,5502.480,N,08301.927,E,038.9,260.0,300323,000.0,W*7D
$GPGGA,034450.042,5502.477,N,08301.909,E,1,12,1.0,0.0,M,0.0,M,,*62
$GPGSA,A,3,01,02,03,04,05,06,07,08,09,10,11,12,1.0,1.0,1.0*30
$GPRMC,034450.042,A,5502.477,N,08301.909,E,038.9,260.0,300323,000.0,W*71
$GPGGA,034451.042,5502.473,N,08301.891,E,1,12,1.0,0.0,M,0.0,M,,*67
$GPGSA,A,3,01,02,03,04,05,06,07,08,09,10,11,12,1.0,1.0,1.0*30
$GPRMC,034451.042,A,5502.473,N,08301.891,E,038.9,260.0,300323,000.0,W*74
$GPGGA,034452.042,5502.470,N,08301.873,E,1,12,1.0,0.0,M,0.0,M,,*6B
$GPGSA,A,3,01,02,03,04,05,06,07,08,09,10,11,12,1.0,1.0,1.0*30
$GPRMC,034452.042,A,5502.470,N,08301.873,E,038.9,260.0,300323,000.0,W*78
$GPGGA,034453.042,5502.467,N,08301.855,E,1,12,1.0,0.0,M,0.0,M,,*68
$GPGSA,A,3,01,02,03,04,05,06,07,08,09,10,11,12,1.0,1.0,1.0*30
$GPRMC,034453.042,A,5502.467,N,08301.855,E,038.9,260.0,300323,000.0,W*7B
$GPGGA,034454.042,5502.464,N,08301.837,E,1,12,1.0,0.0,M,0.0,M,,*68
$GPGSA,A,3,01,02,03,04,05,06,07,08,09,10,11,12,1.0,1.0,1.0*30
$GPRMC,034454.042,A,5502.464,N,08301.837,E,038.9,260.0,300323,000.0,W*7B
$GPGGA,034455.042,5502.461,N,08301.819,E,1,12,1.0,0.0,M,0.0,M,,*60
$GPGSA,A,3,01,02,03,04,05,06,07,08,09,10,11,12,1.0,1.0,1.0*30
$GPRMC,034455.042,A,5502.461,N,08301.819,E,038.9,260.0,300323,000.0,W*73
$GPGGA,034456.042,5502.458,N,08301.801,E,1,12,1.0,0.0,M,0.0,M,,*60
$GPGSA,A,3,01,02,03,04,05,06,07,08,09,10,11,12,1.0,1.0,1.0*30
$GPRMC,034456.042,A,5502.458,N,08301.801,E,038.9,260.0,300323,000.0,W*73
$GPGGA,034457.042,5502.454,N,08301.783,E,1,12,1.0,0.0,M,0.0,M,,*68
$GPGSA,A,3,01,02,03,04,05,06,07,08,09,10,11,12,1.0,1.0,1.0*30
$GPRMC,034457.042,A,5502.454,N,08301.783,E,038.9,260.0,300323,000.0,W*7B
$GPGGA,034458.042,5502.451,N,08301.765,E,1,12,1.0,0.0,M,0.0,M,,*6A
$GPGSA,A,3,01,02,03,04,05,06,07,08,09,10,11,12,1.0,1.0,1.0*30
$GPRMC,034458.042,A,5502.451,N,08301.765,E,038.9,260.0,300323,000.0,W*79
$GPGGA,034459.042,5502.448,N,08301.747,E,1,12,1.0,0.0,M,0.0,M,,*63
$GPGSA,A,3,01,02,03,04,05,06,07,08,09,10,11,12,1.0,1.0,1.0*30
$GPRMC,034459.042,A,5502.448,N,08301.747,E,038.9,260.0,300323,000.0,W*70
$GPGGA,034500.042,5502.445,N,08301.729,E,1,12,1.0,0.0,M,0.0,M,,*6B
$GPGSA,A,3,01,02,03,04,05,06,07,08,09,10,11,12,1.0,1.0,1.0*30
$GPRMC,034500.042,A,5502.445,N,08301.729,E,038.9,260.0,300323,000.0,W*78
$GPGGA,034501.042,5502.442,N,08301.711,E,1,12,1.0,0.0,M,0.0,M,,*66
$GPGSA,A,3,01,02,03,04,05,06,07,08,09,10,11,12,1.0,1.0,1.0*30
$GPRMC,034501.042,A,5502.442,N,08301.711,E,038.9,260.0,300323,000.0,W*75
$GPGGA,034502.042,5502.438,N,08301.693,E,1,12,1.0,0.0,M,0.0,M,,*63
$GPGSA,A,3,01,02,03,04,05,06,07,08,09,10,11,12,1.0,1.0,1.0*30
$GPRMC,034502.042,A,5502.438,N,08301.693,E,038.9,260.0,300323,000.0,W*70
$GPGGA,034503.042,5502.435,N,08301.675,E,1,12,1.0,0.0,M,0.0,M,,*67
$GPGSA,A,3,01,02,03,04,05,06,07,08,09,10,11,12,1.0,1.0,1.0*30
$GPRMC,034503.042,A,5502.435,N,08301.675,E,038.9,260.0,300323,000.0,W*74
$GPGGA,034504.042,5502.432,N,08301.657,E,1,12,1.0,0.0,M,0.0,M,,*67
$GPGSA,A,3,01,02,03,04,05,06,07,08,09,10,11,12,1.0,1.0,1.0*30
$GPRMC,034504.042,A,5502.432,N,08301.657,E,038.9,260.0,300323,000.0,W*74
$GPGGA,034505.042,5502.429,N,08301.639,E,1,12,1.0,0.0,M,0.0,M,,*64
$GPGSA,A,3,01,02,03,04,05,06,07,08,09,10,11,12,1.0,1.0,1.0*30
$GPRMC,034505.042,A,5502.429,N,08301.639,E,038.9,260.0,300323,000.0,W*77
$GPGGA,034506.042,5502.426,N,08301.621,E,1,12,1.0,0.0,M,0.0,M,,*61
$GPGSA,A,3,01,02,03,04,05,06,07,08,09,10,11,12,1.0,1.0,1.0*30
$GPRMC,034506.042,A,5502.426,N,08301.621,E,038.9,260.0,300323,000.0,W*72
$GPGGA,034507.042,5502.423,N,08301.603,E,1,12,1.0,0.0,M,0.0,M,,*65
$GPGSA,A,3,01,02,03,04,05,06,07,08,09,10,11,12,1.0,1.0,1.0*30
$GPRMC,034507.042,A,5502.423,N,08301.603,E,038.9,260.0,300323,000.0,W*76
$GPGGA,034508.042,5502.419,N,08301.585,E,1,12,1.0,0.0,M,0.0,M,,*6E
$GPGSA,A,3,01,02,03,04,05,06,07,08,09,10,11,12,1.0,1.0,1.0*30
$GPRMC,034508.042,A,5502.419,N,08301.585,E,038.9,260.0,300323,000.0,W*7D
$GPGGA,034509.042,5502.416,N,08301.567,E,1,12,1.0,0.0,M,0.0,M,,*6C
$GPGSA,A,3,01,02,03,04,05,06,07,08,09,10,11,12,1.0,1.0,1.0*30
$GPRMC,034509.042,A,5502.416,N,08301.567,E,038.9,260.0,300323,000.0,W*7F
$GPGGA,034510.042,5502.413,N,08301.549,E,1,12,1.0,0.0,M,0.0,M,,*6D
$GPGSA,A,3,01,02,03,04,05,06,07,08,09,10,11,12,1.0,1.0,1.0*30
$GPRMC,034510.042,A,5502.413,N,08301.549,E,038.9,260.0,300323,000.0,W*7E
$GPGGA,034511.042,5502.410,N,08301.531,E,1,12,1.0,0.0,M,0.0,M,,*60
$GPGSA,A,3,01,02,03,04,05,06,07,08,09,10,11,12,1.0,1.0,1.0*30
$GPRMC,034511.042,A,5502.410,N,08301.531,E,038.9,260.0,300323,000.0,W*73
$GPGGA,034512.042,5502.407,N,08301.513,E,1,12,1.0,0.0,M,0.0,M,,*65
$GPGSA,A,3,01,02,03,04,05,06,07,08,09,10,11,12,1.0,1.0,1.0*30
$GPRMC,034512.042,A,5502.407,N,08301.513,E,038.9,260.0,300323,000.0,W*76
$GPGGA,034513.042,5502.404,N,08301.495,E,1,12,1.0,0.0,M,0.0,M,,*68
$GPGSA,A,3,01,02,03,04,05,06,07,08,09,10,11,12,1.0,1.0,1.0*30
$GPRMC,034513.042,A,5502.404,N,08301.495,E,038.9,260.0,300323,000.0,W*7B
$GPGGA,034514.042,5502.400,N,08301.477,E,1,12,1.0,0.0,M,0.0,M,,*67
$GPGSA,A,3,01,02,03,04,05,06,07,08,09,10,11,12,1.0,1.0,1.0*30
$GPRMC,034514.042,A,5502.400,N,08301.477,E,038.9,260.0,300323,000.0,W*74
$GPGGA,034515.042,5502.397,N,08301.459,E,1,12,1.0,0.0,M,0.0,M,,*63
$GPGSA,A,3,01,02,03,04,05,06,07,08,09,10,11,12,1.0,1.0,1.0*30
$GPRMC,034515.042,A,5502.397,N,08301.459,E,038.9,260.0,300323,000.0,W*70
$GPGGA,034516.042,5502.394,N,08301.441,E,1,12,1.0,0.0,M,0.0,M,,*6A
$GPGSA,A,3,01,02,03,04,05,06,07,08,09,10,11,12,1.0,1.0,1.0*30
$GPRMC,034516.042,A,5502.394,N,08301.441,E,038.9,260.0,300323,000.0,W*79
$GPGGA,034517.042,5502.391,N,08301.423,E,1,12,1.0,0.0,M,0.0,M,,*6A
$GPGSA,A,3,01,02,03,04,05,06,07,08,09,10,11,12,1.0,1.0,1.0*30
$GPRMC,034517.042,A,5502.391,N,08301.423,E,038.9,260.0,300323,000.0,W*79
$GPGGA,034518.042,5502.388,N,08301.405,E,1,12,1.0,0.0,M,0.0,M,,*69
$GPGSA,A,3,01,02,03,04,05,06,07,08,09,10,11,12,1.0,1.0,1.0*30
$GPRMC,034518.042,A,5502.388,N,08301.405,E,038.9,260.0,300323,000.0,W*7A
$GPGGA,034519.042,5502.385,N,08301.387,E,1,12,1.0,0.0,M,0.0,M,,*68
$GPGSA,A,3,01,02,03,04,05,06,07,08,09,10,11,12,1.0,1.0,1.0*30
$GPRMC,034519.042,A,5502.385,N,08301.387,E,038.9,260.0,300323,000.0,W*7B
$GPGGA,034520.042,5502.381,N,08301.369,E,1,12,1.0,0.0,M,0.0,M,,*66
$GPGSA,A,3,01,02,03,04,05,06,07,08,09,10,11,12,1.0,1.0,1.0*30
$GPRMC,034520.042,A,5502.381,N,08301.369,E,038.9,260.0,300323,000.0,W*75
$GPGGA,034521.042,5502.378,N,08301.351,E,1,12,1.0,0.0,M,0.0,M,,*6A
$GPGSA,A,3,01,02,03,04,05,06,07,08,09,10,11,12,1.0,1.0,1.0*30
$GPRMC,034521.042,A,5502.378,N,08301.351,E,038.9,260.0,300323,000.0,W*79
$GPGGA,034522.042,5502.375,N,08301.333,E,1,12,1.0,0.0,M,0.0,M,,*60
$GPGSA,A,3,01,02,03,04,05,06,07,08,09,10,11,12,1.0,1.0,1.0*30
$GPRMC,034522.042,A,5502.375,N,08301.333,E,038.9,260.0,300323,000.0,W*73
$GPGGA,034523.042,5502.372,N,08301.315,E,1,12,1.0,0.0,M,0.0,M,,*62
$GPGSA,A,3,01,02,03,04,05,06,07,08,09,10,11,12,1.0,1.0,1.0*30
$GPRMC,034523.042,A,5502.372,N,08301.315,E,038.9,260.0,300323,000.0,W*71
$GPGGA,034524.042,5502.369,N,08301.297,E,1,12,1.0,0.0,M,0.0,M,,*64
$GPGSA,A,3,01,02,03,04,05,06,07,08,09,10,11,12,1.0,1.0,1.0*30
$GPRMC,034524.042,A,5502.369,N,08301.297,E,038.9,260.0,300323,000.0,W*77
$GPGGA,034525.042,5502.366,N,08301.279,E,1,12,1.0,0.0,M,0.0,M,,*6A
$GPGSA,A,3,01,02,03,04,05,06,07,08,09,10,11,12,1.0,1.0,1.0*30
$GPRMC,034525.042,A,5502.366,N,08301.279,E,038.9,260.0,300323,000.0,W*79
$GPGGA,034526.042,5502.362,N,08301.261,E,1,12,1.0,0.0,M,0.0,M,,*64
$GPGSA,A,3,01,02,03,04,05,06,07,08,09,10,11,12,1.0,1.0,1.0*30
$GPRMC,034526.042,A,5502.362,N,08301.261,E,038.9,260.0,300323,000.0,W*77
$GPGGA,034527.042,5502.359,N,08301.243,E,1,12,1.0,0.0,M,0.0,M,,*6D
$GPGSA,A,3,01,02,03,04,05,06,07,08,09,10,11,12,1.0,1.0,1.0*30
$GPRMC,034527.042,A,5502.359,N,08301.243,E,038.9,260.0,300323,000.0,W*7E
$GPGGA,034528.042,5502.356,N,08301.225,E,1,12,1.0,0.0,M,0.0,M,,*6D
$GPGSA,A,3,01,02,03,04,05,06,07,08,09,10,11,12,1.0,1.0,1.0*30
$GPRMC,034528.042,A,5502.356,N,08301.225,E,038.9,260.0,300323,000.0,W*7E
$GPGGA,034529.042,5502.353,N,08301.207,E,1,12,1.0,0.0,M,0.0,M,,*69
$GPGSA,A,3,01,02,03,04,05,06,07,08,09,10,11,12,1.0,1.0,1.0*30
$GPRMC,034529.042,A,5502.353,N,08301.207,E,038.9,260.0,300323,000.0,W*7A
$GPGGA,034530.042,5502.350,N,08301.189,E,1,12,1.0,0.0,M,0.0,M,,*67
$GPGSA,A,3,01,02,03,04,05,06,07,08,09,10,11,12,1.0,1.0,1.0*30
$GPRMC,034530.042,A,5502.350,N,08301.189,E,038.9,260.0,300323,000.0,W*74
$GPGGA,034531.042,5502.347,N,08301.171,E,1,12,1.0,0.0,M,0.0,M,,*67
$GPGSA,A,3,01,02,03,04,05,06,07,08,09,10,11,12,1.0,1.0,1.0*30
$GPRMC,034531.042,A,5502.347,N,08301.171,E,038.9,260.0,300323,000.0,W*74
$GPGGA,034532.042,5502.343,N,08301.153,E,1,12,1.0,0.0,M,0.0,M,,*60
$GPGSA,A,3,01,02,03,04,05,06,07,08,09,10,11,12,1.0,1.0,1.0*30
$GPRMC,034532.042,A,5502.343,N,08301.153,E,038.9,260.0,300323,000.0,W*73
$GPGGA,034533.042,5502.340,N,08301.135,E,1,12,1.0,0.0,M,0.0,M,,*62
$GPGSA,A,3,01,02,03,04,05,06,07,08,09,10,11,12,1.0,1.0,1.0*30
$GPRMC,034533.042,A,5502.340,N,08301.135,E,038.9,260.0,300323,000.0,W*71
$GPGGA,034534.042,5502.337,N,08301.117,E,1,12,1.0,0.0,M,0.0,M,,*65
$GPGSA,A,3,01,02,03,04,05,06,07,08,09,10,11,12,1.0,1.0,1.0*30
$GPRMC,034534.042,A,5502.337,N,08301.117,E,038.9,260.0,300323,000.0,W*76
$GPGGA,034535.042,5502.334,N,08301.099,E,1,12,1.0,0.0,M,0.0,M,,*60
$GPGSA,A,3,01,02,03,04,05,06,07,08,09,10,11,12,1.0,1.0,1.0*30
$GPRMC,034535.042,A,5502.334,N,08301.099,E,038.9,260.0,300323,000.0,W*73
$GPGGA,034536.042,5502.331,N,08301.081,E,1,12,1.0,0.0,M,0.0,M,,*6F
$GPGSA,A,3,01,02,03,04,05,06,07,08,09,10,11,12,1.0,1.0,1.0*30
$GPRMC,034536.042,A,5502.331,N,08301.081,E,038.9,260.0,300323,000.0,W*7C
$GPGGA,034537.042,5502.328,N,08301.063,E,1,12,1.0,0.0,M,0.0,M,,*6A
$GPGSA,A,3,01,02,03,04,05,06,07,08,09,10,11,12,1.0,1.0,1.0*30
$GPRMC,034537.042,A,5502.328,N,08301.063,E,038.9,260.0,300323,000.0,W*79
$GPGGA,034538.042,5502.324,N,08301.045,E,1,12,1.0,0.0,M,0.0,M,,*6D
$GPGSA,A,3,01,02,03,04,05,06,07,08,09,10,11,12,1.0,1.0,1.0*30
$GPRMC,034538.042,A,5502.324,N,08301.045,E,038.9,260.0,300323,000.0,W*7E
$GPGGA,034539.042,5502.321,N,08301.026,E,1,12,1.0,0.0,M,0.0,M,,*6C
$GPGSA,A,3,01,02,03,04,05,06,07,08,09,10,11,12,1.0,1.0,1.0*30
$GPRMC,034539.042,A,5502.321,N,08301.026,E,038.9,260.0,300323,000.0,W*7F
$GPGGA,034540.042,5502.318,N,08301.008,E,1,12,1.0,0.0,M,0.0,M,,*64
$GPGSA,A,3,01,02,03,04,05,06,07,08,09,10,11,12,1.0,1.0,1.0*30
$GPRMC,034540.042,A,5502.318,N,08301.008,E,038.9,260.0,300323,000.0,W*77
$GPGGA,034541.042,5502.315,N,08300.990,E,1,12,1.0,0.0,M,0.0,M,,*61
$GPGSA,A,3,01,02,03,04,05,06,07,08,09,10,11,12,1.0,1.0,1.0*30
$GPRMC,034541.042,A,5502.315,N,08300.990,E,038.9,260.0,300323,000.0,W*72
$GPGGA,034542.042,5502.312,N,08300.972,E,1,12,1.0,0.0,M,0.0,M,,*69
$GPGSA,A,3,01,02,03,04,05,06,07,08,09,10,11,12,1.0,1.0,1.0*30
$GPRMC,034542.042,A,5502.312,N,08300.972,E,038.9,260.0,300323,000.0,W*7A
$GPGGA,034543.042,5502.308,N,08300.954,E,1,12,1.0,0.0,M,0.0,M,,*67
$GPGSA,A,3,01,02,03,04,05,06,07,08,09,10,11,12,1.0,1.0,1.0*30
$GPRMC,034543.042,A,5502.308,N,08300.954,E,038.9,260.0,300323,000.0,W*74
$GPGGA,034544.042,5502.305,N,08300.936,E,1,12,1.0,0.0,M,0.0,M,,*69
$GPGSA,A,3,01,02,03,04,05,06,07,08,09,10,11,12,1.0,1.0,1.0*30
$GPRMC,034544.042,A,5502.305,N,08300.936,E,038.9,260.0,300323,000.0,W*7A
$GPGGA,034545.042,5502.302,N,08300.918,E,1,12,1.0,0.0,M,0.0,M,,*63
$GPGSA,A,3,01,02,03,04,05,06,07,08,09,10,11,12,1.0,1.0,1.0*30
$GPRMC,034545.042,A,5502.302,N,08300.918,E,038.9,260.0,300323,000.0,W*70
$GPGGA,034546.042,5502.299,N,08300.900,E,1,12,1.0,0.0,M,0.0,M,,*6A
$GPGSA,A,3,01,02,03,04,05,06,07,08,09,10,11,12,1.0,1.0,1.0*30
$GPRMC,034546.042,A,5502.299,N,08300.900,E,038.9,260.0,300323,000.0,W*79
$GPGGA,034547.042,5502.296,N,08300.882,E,1,12,1.0,0.0,M,0.0,M,,*6F
$GPGSA,A,3,01,02,03,04,05,06,07,08,09,10,11,12,1.0,1.0,1.0*30
$GPRMC,034547.042,A,5502.296,N,08300.882,E,038.9,260.0,300323,000.0,W*7C
$GPGGA,034548.042,5502.293,N,08300.864,E,1,12,1.0,0.0,M,0.0,M,,*6D
$GPGSA,A,3,01,02,03,04,05,06,07,08,09,10,11,12,1.0,1.0,1.0*30
$GPRMC,034548.042,A,5502.293,N,08300.864,E,038.9,260.0,300323,000.0,W*7E
$GPGGA,034549.042,5502.289,N,08300.846,E,1,12,1.0,0.0,M,0.0,M,,*67
$GPGSA,A,3,01,02,03,04,05,06,07,08,09,10,11,12,1.0,1.0,1.0*30
$GPRMC,034549.042,A,5502.289,N,08300.846,E,038.9,260.0,300323,000.0,W*74
$GPGGA,034550.042,5502.286,N,08300.828,E,1,12,1.0,0.0,M,0.0,M,,*68
$GPGSA,A,3,01,02,03,04,05,06,07,08,09,10,11,12,1.0,1.0,1.0*30
$GPRMC,034550.042,A,5502.286,N,08300.828,E,038.9,260.0,300323,000.0,W*7B
$GPGGA,034551.042,5502.283,N,08300.810,E,1,12,1.0,0.0,M,0.0,M,,*67
$GPGSA,A,3,01,02,03,04,05,06,07,08,09,10,11,12,1.0,1.0,1.0*30
$GPRMC,034551.042,A,5502.283,N,08300.810,E,038.9,260.0,300323,000.0,W*74
$GPGGA,034552.042,5502.280,N,08300.792,E,1,12,1.0,0.0,M,0.0,M,,*62
$GPGSA,A,3,01,02,03,04,05,06,07,08,09,10,11,12,1.0,1.0,1.0*30
$GPRMC,034552.042,A,5502.280,N,08300.792,E,038.9,260.0,300323,000.0,W*71
$GPGGA,034553.042,5502.277,N,08300.774,E,1,12,1.0,0.0,M,0.0,M,,*63
$GPGSA,A,3,01,02,03,04,05,06,07,08,09,10,11,12,1.0,1.0,1.0*30
$GPRMC,034553.042,A,5502.277,N,08300.774,E,038.9,260.0,300323,000.0,W*70
$GPGGA,034554.042,5502.274,N,08300.756,E,1,12,1.0,0.0,M,0.0,M,,*67
$GPGSA,A,3,01,02,03,04,05,06,07,08,09,10,11,12,1.0,1.0,1.0*30
$GPRMC,034554.042,A,5502.274,N,08300.756,E,038.9,260.0,300323,000.0,W*74
$GPGGA,034555.042,5502.270,N,08300.738,E,1,12,1.0,0.0,M,0.0,M,,*6A
$GPGSA,A,3,01,02,03,04,05,06,07,08,09,10,11,12,1.0,1.0,1.0*30
$GPRMC,034555.042,A,5502.270,N,08300.738,E,038.9,260.0,300323,000.0,W*79
$GPGGA,034556.042,5502.267,N,08300.720,E,1,12,1.0,0.0,M,0.0,M,,*66
$GPGSA,A,3,01,02,03,04,05,06,07,08,09,10,11,12,1.0,1.0,1.0*30
$GPRMC,034556.042,A,5502.267,N,08300.720,E,038.9,260.0,300323,000.0,W*75
$GPGGA,034557.042,5502.264,N,08300.702,E,1,12,1.0,0.0,M,0.0,M,,*64
$GPGSA,A,3,01,02,03,04,05,06,07,08,09,10,11,12,1.0,1.0,1.0*30
$GPRMC,034557.042,A,5502.264,N,08300.702,E,038.9,260.0,300323,000.0,W*77
$GPGGA,034558.042,5502.261,N,08300.684,E,1,12,1.0,0.0,M,0.0,M,,*61
$GPGSA,A,3,01,02,03,04,05,06,07,08,09,10,11,12,1.0,1.0,1.0*30
$GPRMC,034558.042,A,5502.261,N,08300.684,E,038.9,260.0,300323,000.0,W*72
$GPGGA,034559.042,5502.258,N,08300.666,E,1,12,1.0,0.0,M,0.0,M,,*66
$GPGSA,A,3,01,02,03,04,05,06,07,08,09,10,11,12,1.0,1.0,1.0*30
$GPRMC,034559.042,A,5502.258,N,08300.666,E,038.9,260.0,300323,000.0,W*75
$GPGGA,034600.042,5502.255,N,08300.648,E,1,12,1.0,0.0,M,0.0,M,,*68
$GPGSA,A,3,01,02,03,04,05,06,07,08,09,10,11,12,1.0,1.0,1.0*30
$GPRMC,034600.042,A,5502.255,N,08300.648,E,038.9,260.0,300323,000.0,W*7B
$GPGGA,034601.042,5502.251,N,08300.630,E,1,12,1.0,0.0,M,0.0,M,,*62
$GPGSA,A,3,01,02,03,04,05,06,07,08,09,10,11,12,1.0,1.0,1.0*30
$GPRMC,034601.042,A,5502.251,N,08300.630,E,038.9,260.0,300323,000.0,W*71
$GPGGA,034602.042,5502.248,N,08300.612,E,1,12,1.0,0.0,M,0.0,M,,*69
$GPGSA,A,3,01,02,03,04,05,06,07,08,09,10,11,12,1.0,1.0,1.0*30
$GPRMC,034602.042,A,5502.248,N,08300.612,E,038.9,260.0,300323,000.0,W*7A
$GPGGA,034603.042,5502.245,N,08300.594,E,1,12,1.0,0.0,M,0.0,M,,*68
$GPGSA,A,3,01,02,03,04,05,06,07,08,09,10,11,12,1.0,1.0,1.0*30
$GPRMC,034603.042,A,5502.245,N,08300.594,E,038.9,260.0,300323,000.0,W*7B
$GPGGA,034604.042,5502.242,N,08300.576,E,1,12,1.0,0.0,M,0.0,M,,*64
$GPGSA,A,3,01,02,03,04,05,06,07,08,09,10,11,12,1.0,1.0,1.0*30
$GPRMC,034604.042,A,5502.242,N,08300.576,E,038.9,260.0,300323,000.0,W*77
$GPGGA,034605.042,5502.239,N,08300.558,E,1,12,1.0,0.0,M,0.0,M,,*65
$GPGSA,A,3,01,02,03,04,05,06,07,08,09,10,11,12,1.0,1.0,1.0*30
$GPRMC,034605.042,A,5502.239,N,08300.558,E,038.9,260.0,300323,000.0,W*76
$GPGGA,034606.042,5502.236,N,08300.540,E,1,12,1.0,0.0,M,0.0,M,,*60
$GPGSA,A,3,01,02,03,04,05,06,07,08,09,10,11,12,1.0,1.0,1.0*30
$GPRMC,034606.042,A,5502.236,N,08300.540,E,038.9,260.0,300323,000.0,W*73
$GPGGA,034607.042,5502.232,N,08300.522,E,1,12,1.0,0.0,M,0.0,M,,*61
$GPGSA,A,3,01,02,03,04,05,06,07,08,09,10,11,12,1.0,1.0,1.0*30
$GPRMC,034607.042,A,5502.232,N,08300.522,E,038.9,260.0,300323,000.0,W*72
$GPGGA,034608.042,5502.229,N,08300.504,E,1,12,1.0,0.0,M,0.0,M,,*60
$GPGSA,A,3,01,02,03,04,05,06,07,08,09,10,11,12,1.0,1.0,1.0*30
$GPRMC,034608.042,A,5502.229,N,08300.504,E,038.9,260.0,300323,000.0,W*73
$GPGGA,034609.042,5502.226,N,08300.486,E,1,12,1.0,0.0,M,0.0,M,,*65
$GPGSA,A,3,01,02,03,04,05,06,07,08,09,10,11,12,1.0,1.0,1.0*30
$GPRMC,034609.042,A,5502.226,N,08300.486,E,038.9,260.0,300323,000.0,W*76
$GPGGA,034610.042,5502.223,N,08300.468,E,1,12,1.0,0.0,M,0.0,M,,*68
$GPGSA,A,3,01,02,03,04,05,06,07,08,09,10,11,12,1.0,1.0,1.0*30
$GPRMC,034610.042,A,5502.223,N,08300.468,E,038.9,260.0,300323,000.0,W*7B
$GPGGA,034611.042,5502.220,N,08300.450,E,1,12,1.0,0.0,M,0.0,M,,*61
$GPGSA,A,3,01,02,03,04,05,06,07,08,09,10,11,12,1.0,1.0,1.0*30
$GPRMC,034611.042,A,5502.220,N,08300.450,E,038.9,260.0,300323,000.0,W*72
$GPGGA,034612.042,5502.217,N,08300.432,E,1,12,1.0,0.0,M,0.0,M,,*62
$GPGSA,A,3,01,02,03,04,05,06,07,08,09,10,11,12,1.0,1.0,1.0*30
$GPRMC,034612.042,A,5502.217,N,08300.432,E,038.9,260.0,300323,000.0,W*71
$GPGGA,034613.042,5502.213,N,08300.414,E,1,12,1.0,0.0,M,0.0,M,,*63
$GPGSA,A,3,01,02,03,04,05,06,07,08,09,10,11,12,1.0,1.0,1.0*30
$GPRMC,034613.042,A,5502.213,N,08300.414,E,038.9,260.0,300323,000.0,W*70
$GPGGA,034614.042,5502.210,N,08300.396,E,1,12,1.0,0.0,M,0.0,M,,*6A
$GPGSA,A,3,01,02,03,04,05,06,07,08,09,10,11,12,1.0,1.0,1.0*30
$GPRMC,034614.042,A,5502.210,N,08300.396,E,038.9,260.0,300323,000.0,W*79
$GPGGA,034615.042,5502.207,N,08300.378,E,1,12,1.0,0.0,M,0.0,M,,*6D
$GPGSA,A,3,01,02,03,04,05,06,07,08,09,10,11,12,1.0,1.0,1.0*30
$GPRMC,034615.042,A,5502.207,N,08300.378,E,038.9,260.0,300323,000.0,W*7E
$GPGGA,034616.042,5502.204,N,08300.360,E,1,12,1.0,0.0,M,0.0,M,,*64
$GPGSA,A,3,01,02,03,04,05,06,07,08,09,10,11,12,1.0,1.0,1.0*30
$GPRMC,034616.042,A,5502.204,N,08300.360,E,038.9,260.0,300323,000.0,W*77
$GPGGA,034617.042,5502.201,N,08300.342,E,1,12,1.0,0.0,M,0.0,M,,*60
$GPGSA,A,3,01,02,03,04,05,06,07,08,09,10,11,12,1.0,1.0,1.0*30
$GPRMC,034617.042,A,5502.201,N,08300.342,E,038.9,260.0,300323,000.0,W*73
$GPGGA,034618.042,5502.198,N,08300.324,E,1,12,1.0,0.0,M,0.0,M,,*6C
$GPGSA,A,3,01,02,03,04,05,06,07,08,09,10,11,12,1.0,1.0,1.0*30
$GPRMC,034618.042,A,5502.198,N,08300.324,E,038.9,260.0,300323,000.0,W*7F
$GPGGA,034619.042,5502.194,N,08300.306,E,1,12,1.0,0.0,M,0.0,M,,*61
$GPGSA,A,3,01,02,03,04,05,06,07,08,09,10,11,12,1.0,1.0,1.0*30
$GPRMC,034619.042,A,5502.194,N,08300.306,E,038.9,260.0,300323,000.0,W*72
$GPGGA,034620.042,5502.191,N,08300.288,E,1,12,1.0,0.0,M,0.0,M,,*69
$GPGSA,A,3,01,02,03,04,05,06,07,08,09,10,11,12,1.0,1.0,1.0*30
$GPRMC,034620.042,A,5502.191,N,08300.288,E,038.9,260.0,300323,000.0,W*7A
$GPGGA,034621.042,5502.188,N,08300.270,E,1,12,1.0,0.0,M,0.0,M,,*67
$GPGSA,A,3,01,02,03,04,05,06,07,08,09,10,11,12,1.0,1.0,1.0*30
$GPRMC,034621.042,A,5502.188,N,08300.270,E,038.9,260.0,300323,000.0,W*74
$GPGGA,034622.042,5502.185,N,08300.252,E,1,12,1.0,0.0,M,0.0,M,,*69
$GPGSA,A,3,01,02,03,04,05,06,07,08,09,10,11,12,1.0,1.0,1.0*30
$GPRMC,034622.042,A,5502.185,N,08300.252,E,038.9,260.0,300323,000.0,W*7A
$GPGGA,034623.042,5502.182,N,08300.234,E,1,12,1.0,0.0,M,0.0,M,,*6F
$GPGSA,A,3,01,02,03,04,05,06,07,08,09,10,11,12,1.0,1.0,1.0*30
$GPRMC,034623.042,A,5502.182,N,08300.234,E,038.9,260.0,300323,000.0,W*7C
$GPGGA,034624.042,5502.178,N,08300.216,E,1,12,1.0,0.0,M,0.0,M,,*6D
$GPGSA,A,3,01,02,03,04,05,06,07,08,09,10,11,12,1.0,1.0,1.0*30
$GPRMC,034624.042,A,5502.178,N,08300.216,E,038.9,260.0,300323,000.0,W*7E
$GPGGA,034625.042,5502.175,N,08300.198,E,1,12,1.0,0.0,M,0.0,M,,*64
$GPGSA,A,3,01,02,03,04,05,06,07,08,09,10,11,12,1.0,1.0,1.0*30
$GPRMC,034625.042,A,5502.175,N,08300.198,E,038.9,254.0,300323,000.0,W*70
$GPGGA,034626.042,5502.171,N,08300.182,E,1,12,1.0,0.0,M,0.0,M,,*68
$GPGSA,A,3,01,02,03,04,05,06,07,08,09,10,11,12,1.0,1.0,1.0*30
$GPRMC,034626.042,A,5502.171,N,08300.182,E,038.9,254.0,300323,000.0,W*7C
$GPGGA,034627.042,5502.166,N,08300.165,E,1,12,1.0,0.0,M,0.0,M,,*66
$GPGSA,A,3,01,02,03,04,05,06,07,08,09,10,11,12,1.0,1.0,1.0*30
$GPRMC,034627.042,A,5502.166,N,08300.165,E,038.9,254.0,300323,000.0,W*72
$GPGGA,034628.042,5502.161,N,08300.148,E,1,12,1.0,0.0,M,0.0,M,,*61
$GPGSA,A,3,01,02,03,04,05,06,07,08,09,10,11,12,1.0,1.0,1.0*30
$GPRMC,034628.042,A,5502.161,N,08300.148,E,038.9,254.0,300323,000.0,W*75
$GPGGA,034629.042,5502.156,N,08300.131,E,1,12,1.0,0.0,M,0.0,M,,*6A
$GPGSA,A,3,01,02,03,04,05,06,07,08,09,10,11,12,1.0,1.0,1.0*30
$GPRMC,034629.042,A,5502.156,N,08300.131,E,038.9,254.0,300323,000.0,W*7E
$GPGGA,034630.042,5502.151,N,08300.114,E,1,12,1.0,0.0,M,0.0,M,,*62
$GPGSA,A,3,01,02,03,04,05,06,07,08,09,10,11,12,1.0,1.0,1.0*30
$GPRMC,034630.042,A,5502.151,N,08300.114,E,038.9,254.0,300323,000.0,W*76
$GPGGA,034631.042,5502.147,N,08300.097,E,1,12,1.0,0.0,M,0.0,M,,*6E
$GPGSA,A,3,01,02,03,04,05,06,07,08,09,10,11,12,1.0,1.0,1.0*30
$GPRMC,034631.042,A,5502.147,N,08300.097,E,038.9,254.0,300323,000.0,W*7A
$GPGGA,034632.042,5502.142,N,08300.080,E,1,12,1.0,0.0,M,0.0,M,,*6E
$GPGSA,A,3,01,02,03,04,05,06,07,08,09,10,11,12,1.0,1.0,1.0*30
$GPRMC,034632.042,A,5502.142,N,08300.080,E,038.9,254.0,300323,000.0,W*7A
$GPGGA,034633.042,5502.137,N,08300.063,E,1,12,1.0,0.0,M,0.0,M,,*60
$GPGSA,A,3,01,02,03,04,05,06,07,08,09,10,11,12,1.0,1.0,1.0*30
$GPRMC,034633.042,A,5502.137,N,08300.063,E,038.9,254.0,300323,000.0,W*74
$GPGGA,034634.042,5502.132,N,08300.047,E,1,12,1.0,0.0,M,0.0,M,,*64
$GPGSA,A,3,01,02,03,04,05,06,07,08,09,10,11,12,1.0,1.0,1.0*30
$GPRMC,034634.042,A,5502.132,N,08300.047,E,038.9,254.0,300323,000.0,W*70
$GPGGA,034635.042,5502.127,N,08300.030,E,1,12,1.0,0.0,M,0.0,M,,*61
$GPGSA,A,3,01,02,03,04,05,06,07,08,09,10,11,12,1.0,1.0,1.0*30
$GPRMC,034635.042,A,5502.127,N,08300.030,E,038.9,254.0,300323,000.0,W*75
$GPGGA,034636.042,5502.123,N,08300.013,E,1,12,1.0,0.0,M,0.0,M,,*67
$GPGSA,A,3,01,02,03,04,05,06,07,08,09,10,11,12,1.0,1.0,1.0*30
$GPRMC,034636.042,A,5502.123,N,08300.013,E,038.9,248.7,300323,000.0,W*79
$GPGGA,034637.042,5502.116,N,08259.997,E,1,12,1.0,0.0,M,0.0,M,,*68
$GPGSA,A,3,01,02,03,04,05,06,07,08,09,10,11,12,1.0,1.0,1.0*30
$GPRMC,034637.042,A,5502.116,N,08259.997,E,038.9,248.7,300323,000.0,W*76
$GPGGA,034638.042,5502.110,N,08259.982,E,1,12,1.0,0.0,M,0.0,M,,*65
$GPGSA,A,3,01,02,03,04,05,06,07,08,09,10,11,12,1.0,1.0,1.0*30
$GPRMC,034638.042,A,5502.110,N,08259.982,E,038.9,248.7,300323,000.0,W*7B
$GPGGA,034639.042,5502.104,N,08259.966,E,1,12,1.0,0.0,M,0.0,M,,*6B
$GPGSA,A,3,01,02,03,04,05,06,07,08,09,10,11,12,1.0,1.0,1.0*30
$GPRMC,034639.042,A,5502.104,N,08259.966,E,038.9,248.7,300323,000.0,W*75
$GPGGA,034640.042,5502.098,N,08259.950,E,1,12,1.0,0.0,M,0.0,M,,*64
$GPGSA,A,3,01,02,03,04,05,06,07,08,09,10,11,12,1.0,1.0,1.0*30
$GPRMC,034640.042,A,5502.098,N,08259.950,E,038.9,248.7,300323,000.0,W*7A
$GPGGA,034641.042,5502.092,N,08259.935,E,1,12,1.0,0.0,M,0.0,M,,*6C
$GPGSA,A,3,01,02,03,04,05,06,07,08,09,10,11,12,1.0,1.0,1.0*30
$GPRMC,034641.042,A,5502.092,N,08259.935,E,038.9,248.7,300323,000.0,W*72
$GPGGA,034642.042,5502.086,N,08259.919,E,1,12,1.0,0.0,M,0.0,M,,*64
$GPGSA,A,3,01,02,03,04,05,06,07,08,09,10,11,12,1.0,1.0,1.0*30
$GPRMC,034642.042,A,5502.086,N,08259.919,E,038.9,248.7,300323,000.0,W*7A
$GPGGA,034643.042,5502.080,N,08259.904,E,1,12,1.0,0.0,M,0.0,M,,*6F
$GPGSA,A,3,01,02,03,04,05,06,07,08,09,10,11,12,1.0,1.0,1.0*30
$GPRMC,034643.042,A,5502.080,N,08259.904,E,038.9,248.7,300323,000.0,W*71
$GPGGA,034644.042,5502.074,N,08259.888,E,1,12,1.0,0.0,M,0.0,M,,*66
$GPGSA,A,3,01,02,03,04,05,06,07,08,09,10,11,12,1.0,1.0,1.0*30
$GPRMC,034644.042,A,5502.074,N,08259.888,E,038.9,248.7,300323,000.0,W*78
$GPGGA,034645.042,5502.068,N,08259.872,E,1,12,1.0,0.0,M,0.0,M,,*6F
$GPGSA,A,3,01,02,03,04,05,06,07,08,09,10,11,12,1.0,1.0,1.0*30
$GPRMC,034645.042,A,5502.068,N,08259.872,E,038.9,248.7,300323,000.0,W*71
$GPGGA,034646.042,5502.062,N,08259.857,E,1,12,1.0,0.0,M,0.0,M,,*61
$GPGSA,A,3,01,02,03,04,05,06,07,08,09,10,11,12,1.0,1.0,1.0*30
$GPRMC,034646.042,A,5502.062,N,08259.857,E,038.9,248.7,300323,000.0,W*7F
$GPGGA,034647.042,5502.056,N,08259.841,E,1,12,1.0,0.0,M,0.0,M,,*60
$GPGSA,A,3,01,02,03,04,05,06,07,08,09,10,11,12,1.0,1.0,1.0*30
$GPRMC,034647.042,A,5502.056,N,08259.841,E,038.9,248.7,300323,000.0,W*7E
$GPGGA,034648.042,5502.050,N,08259.826,E,1,12,1.0,0.0,M,0.0,M,,*68
$GPGSA,A,3,01,02,03,04,05,06,07,08,09,10,11,12,1.0,1.0,1.0*30
$GPRMC,034648.042,A,5502.050,N,08259.826,E,038.9,248.7,300323,000.0,W*76
$GPGGA,034649.042,5502.044,N,08259.810,E,1,12,1.0,0.0,M,0.0,M,,*69
$GPGSA,A,3,01,02,03,04,05,06,07,08,09,10,11,12,1.0,1.0,1.0*30
$GPRMC,034649.042,A,5502.044,N,08259.810,E,038.9,248.7,300323,000.0,W*77
$GPGGA,034650.042,5502.038,N,08259.794,E,1,12,1.0,0.0,M,0.0,M,,*69
$GPGSA,A,3,01,02,03,04,05,06,07,08,09,10,11,12,1.0,1.0,1.0*30
$GPRMC,034650.042,A,5502.038,N,08259.794,E,038.9,248.7,300323,000.0,W*77
$GPGGA,034651.042,5502.032,N,08259.779,E,1,12,1.0,0.0,M,0.0,M,,*61
$GPGSA,A,3,01,02,03,04,05,06,07,08,09,10,11,12,1.0,1.0,1.0*30
$GPRMC,034651.042,A,5502.032,N,08259.779,E,038.9,248.7,300323,000.0,W*7F
$GPGGA,034652.042,5502.026,N,08259.763,E,1,12,1.0,0.0,M,0.0,M,,*6C
$GPGSA,A,3,01,02,03,04,05,06,07,08,09,10,11,12,1.0,1.0,1.0*30
$GPRMC,034652.042,A,5502.026,N,08259.763,E,038.9,248.7,300323,000.0,W*72
$GPGGA,034653.042,5502.020,N,08259.748,E,1,12,1.0,0.0,M,0.0,M,,*62
$GPGSA,A,3,01,02,03,04,05,06,07,08,09,10,11,12,1.0,1.0,1.0*30
$GPRMC,034653.042,A,5502.020,N,08259.748,E,038.9,248.7,300323,000.0,W*7C
$GPGGA,034654.042,5502.014,N,08259.732,E,1,12,1.0,0.0,M,0.0,M,,*6F
$GPGSA,A,3,01,02,03,04,05,06,07,08,09,10,11,12,1.0,1.0,1.0*30
$GPRMC,034654.042,A,5502.014,N,08259.732,E,038.9,248.7,300323,000.0,W*71
$GPGGA,034655.042,5502.008,N,08259.716,E,1,12,1.0,0.0,M,0.0,M,,*65
$GPGSA,A,3,01,02,03,04,05,06,07,08,09,10,11,12,1.0,1.0,1.0*30
$GPRMC,034655.042,A,5502.008,N,08259.716,E,038.9,242.9,300323,000.0,W*7F
$GPGGA,034656.042,5502.001,N,08259.702,E,1,12,1.0,0.0,M,0.0,M,,*6A
$GPGSA,A,3,01,02,03,04,05,06,07,08,09,10,11,12,1.0,1.0,1.0*30
$GPRMC,034656.042,A,5502.001,N,08259.702,E,038.9,242.9,300323,000.0,W*70
$GPGGA,034657.042,5501.993,N,08259.688,E,1,12,1.0,0.0,M,0.0,M,,*69
$GPGSA,A,3,01,02,03,04,05,06,07,08,09,10,11,12,1.0,1.0,1.0*30
$GPRMC,034657.042,A,5501.993,N,08259.688,E,038.9,242.9,300323,000.0,W*73
$GPGGA,034658.042,5501.986,N,08259.674,E,1,12,1.0,0.0,M,0.0,M,,*61
$GPGSA,A,3,01,02,03,04,05,06,07,08,09,10,11,12,1.0,1.0,1.0*30
$GPRMC,034658.042,A,5501.986,N,08259.674,E,038.9,242.9,300323,000.0,W*7B
$GPGGA,034659.042,5501.979,N,08259.660,E,1,12,1.0,0.0,M,0.0,M,,*65
$GPGSA,A,3,01,02,03,04,05,06,07,08,09,10,11,12,1.0,1.0,1.0*30
$GPRMC,034659.042,A,5501.979,N,08259.660,E,038.9,242.9,300323,000.0,W*7F
$GPGGA,034700.042,5501.972,N,08259.646,E,1,12,1.0,0.0,M,0.0,M,,*67
$GPGSA,A,3,01,02,03,04,05,06,07,08,09,10,11,12,1.0,1.0,1.0*30
$GPRMC,034700.042,A,5501.972,N,08259.646,E,038.9,242.9,300323,000.0,W*7D
$GPGGA,034701.042,5501.965,N,08259.632,E,1,12,1.0,0.0,M,0.0,M,,*63
$GPGSA,A,3,01,02,03,04,05,06,07,08,09,10,11,12,1.0,1.0,1.0*30
$GPRMC,034701.042,A,5501.965,N,08259.632,E,038.9,242.9,300323,000.0,W*79
$GPGGA,034702.042,5501.958,N,08259.618,E,1,12,1.0,0.0,M,0.0,M,,*66
$GPGSA,A,3,01,02,03,04,05,06,07,08,09,10,11,12,1.0,1.0,1.0*30
$GPRMC,034702.042,A,5501.958,N,08259.618,E,038.9,242.9,300323,000.0,W*7C
$GPGGA,034703.042,5501.950,N,08259.604,E,1,12,1.0,0.0,M,0.0,M,,*62
$GPGSA,A,3,01,02,03,04,05,06,07,08,09,10,11,12,1.0,1.0,1.0*30
$GPRMC,034703.042,A,5501.950,N,08259.604,E,038.9,242.9,300323,000.0,W*78
$GPGGA,034704.042,5501.943,N,08259.590,E,1,12,1.0,0.0,M,0.0,M,,*69
$GPGSA,A,3,01,02,03,04,05,06,07,08,09,10,11,12,1.0,1.0,1.0*30
$GPRMC,034704.042,A,5501.943,N,08259.590,E,038.9,242.9,300323,000.0,W*73
$GPGGA,034705.042,5501.936,N,08259.576,E,1,12,1.0,0.0,M,0.0,M,,*62
$GPGSA,A,3,01,02,03,04,05,06,07,08,09,10,11,12,1.0,1.0,1.0*30
$GPRMC,034705.042,A,5501.936,N,08259.576,E,038.9,242.9,300323,000.0,W*78
$GPGGA,034706.042,5501.929,N,08259.561,E,1,12,1.0,0.0,M,0.0,M,,*69
$GPGSA,A,3,01,02,03,04,05,06,07,08,09,10,11,12,1.0,1.0,1.0*30
$GPRMC,034706.042,A,5501.929,N,08259.561,E,038.9,242.9,300323,000.0,W*73
$GPGGA,034707.042,5501.922,N,08259.547,E,1,12,1.0,0.0,M,0.0,M,,*67
$GPGSA,A,3,01,02,03,04,05,06,07,08,09,10,11,12,1.0,1.0,1.0*30
$GPRMC,034707.042,A,5501.922,N,08259.547,E,038.9,242.9,300323,000.0,W*7D
$GPGGA,034708.042,5501.915,N,08259.533,E,1,12,1.0,0.0,M,0.0,M,,*6F
$GPGSA,A,3,01,02,03,04,05,06,07,08,09,10,11,12,1.0,1.0,1.0*30
$GPRMC,034708.042,A,5501.915,N,08259.533,E,038.9,242.9,300323,000.0,W*75
$GPGGA,034709.042,5501.907,N,08259.519,E,1,12,1.0,0.0,M,0.0,M,,*65
$GPGSA,A,3,01,02,03,04,05,06,07,08,09,10,11,12,1.0,1.0,1.0*30
$GPRMC,034709.042,A,5501.907,N,08259.519,E,038.9,242.9,300323,000.0,W*7F
$GPGGA,034710.042,5501.900,N,08259.505,E,1,12,1.0,0.0,M,0.0,M,,*67
$GPGSA,A,3,01,02,03,04,05,06,07,08,09,10,11,12,1.0,1.0,1.0*30
$GPRMC,034710.042,A,5501.900,N,08259.505,E,038.9,242.9,300323,000.0,W*7D
$GPGGA,034711.042,5501.893,N,08259.491,E,1,12,1.0,0.0,M,0.0,M,,*61
$GPGSA,A,3,01,02,03,04,05,06,07,08,09,10,11,12,1.0,1.0,1.0*30
$GPRMC,034711.042,A,5501.893,N,08259.491,E,038.9,242.9,300323,000.0,W*7B
$GPGGA,034712.042,5501.886,N,08259.477,E,1,12,1.0,0.0,M,0.0,M,,*6E
$GPGSA,A,3,01,02,03,04,05,06,07,08,09,10,11,12,1.0,1.0,1.0*30
$GPRMC,034712.042,A,5501.886,N,08259.477,E,038.9,242.9,300323,000.0,W*74
$GPGGA,034713.042,5501.879,N,08259.463,E,1,12,1.0,0.0,M,0.0,M,,*6A
$GPGSA,A,3,01,02,03,04,05,06,07,08,09,10,11,12,1.0,1.0,1.0*30
$GPRMC,034713.042,A,5501.879,N,08259.463,E,038.9,242.9,300323,000.0,W*70
$GPGGA,034714.042,5501.872,N,08259.449,E,1,12,1.0,0.0,M,0.0,M,,*6E
$GPGSA,A,3,01,02,03,04,05,06,07,08,09,10,11,12,1.0,1.0,1.0*30
$GPRMC,034714.042,A,5501.872,N,08259.449,E,038.9,242.9,300323,000.0,W*74
$GPGGA,034715.042,5501.864,N,08259.435,E,1,12,1.0,0.0,M,0.0,M,,*63
$GPGSA,A,3,01,02,03,04,05,06,07,08,09,10,11,12,1.0,1.0,1.0*30
$GPRMC,034715.042,A,5501.864,N,08259.435,E,038.9,242.9,300323,000.0,W*79
$GPGGA,034716.042,5501.857,N,08259.421,E,1,12,1.0,0.0,M,0.0,M,,*65
$GPGSA,A,3,01,02,03,04,05,06,07,08,09,10,11,12,1.0,1.0,1.0*30
$GPRMC,034716.042,A,5501.857,N,08259.421,E,038.9,242.9,300323,000.0,W*7F
$GPGGA,034717.042,5501.850,N,08259.407,E,1,12,1.0,0.0,M,0.0,M,,*67
$GPGSA,A,3,01,02,03,04,05,06,07,08,09,10,11,12,1.0,1.0,1.0*30
$GPRMC,034717.042,A,5501.850,N,08259.407,E,038.9,242.9,300323,000.0,W*7D
$GPGGA,034718.042,5501.843,N,08259.393,E,1,12,1.0,0.0,M,0.0,M,,*60
$GPGSA,A,3,01,02,03,04,05,06,07,08,09,10,11,12,1.0,1.0,1.0*30
$GPRMC,034718.042,A,5501.843,N,08259.393,E,038.9,242.9,300323,000.0,W*7A
$GPGGA,034719.042,5501.836,N,08259.378,E,1,12,1.0,0.0,M,0.0,M,,*66
$GPGSA,A,3,01,02,03,04,05,06,07,08,09,10,11,12,1.0,1.0,1.0*30
$GPRMC,034719.042,A,5501.836,N,08259.378,E,038.9,242.9,300323,000.0,W*7C
$GPGGA,034720.042,5501.829,N,08259.364,E,1,12,1.0,0.0,M,0.0,M,,*6F
$GPGSA,A,3,01,02,03,04,05,06,07,08,09,10,11,12,1.0,1.0,1.0*30
$GPRMC,034720.042,A,5501.829,N,08259.364,E,038.9,242.9,300323,000.0,W*75
$GPGGA,034721.042,5501.821,N,08259.350,E,1,12,1.0,0.0,M,0.0,M,,*61
$GPGSA,A,3,01,02,03,04,05,06,07,08,09,10,11,12,1.0,1.0,1.0*30
$GPRMC,034721.042,A,5501.821,N,08259.350,E,038.9,242.9,300323,000.0,W*7B
$GPGGA,034722.042,5501.814,N,08259.336,E,1,12,1.0,0.0,M,0.0,M,,*64
$GPGSA,A,3,01,02,03,04,05,06,07,08,09,10,11,12,1.0,1.0,1.0*30
$GPRMC,034722.042,A,5501.814,N,08259.336,E,038.9,242.9,300323,000.0,W*7E
$GPGGA,034723.042,5501.807,N,08259.322,E,1,12,1.0,0.0,M,0.0,M,,*62
$GPGSA,A,3,01,02,03,04,05,06,07,08,09,10,11,12,1.0,1.0,1.0*30
$GPRMC,034723.042,A,5501.807,N,08259.322,E,038.9,242.9,300323,000.0,W*78
$GPGGA,034724.042,5501.800,N,08259.308,E,1,12,1.0,0.0,M,0.0,M,,*6A
$GPGSA,A,3,01,02,03,04,05,06,07,08,09,10,11,12,1.0,1.0,1.0*30
$GPRMC,034724.042,A,5501.800,N,08259.308,E,038.9,242.9,300323,000.0,W*70
$GPGGA,034725.042,5501.793,N,08259.294,E,1,12,1.0,0.0,M,0.0,M,,*6A
$GPGSA,A,3,01,02,03,04,05,06,07,08,09,10,11,12,1.0,1.0,1.0*30
$GPRMC,034725.042,A,5501.793,N,08259.294,E,038.9,242.9,300323,000.0,W*70
$GPGGA,034726.042,5501.786,N,08259.280,E,1,12,1.0,0.0,M,0.0,M,,*68
$GPGSA,A,3,01,02,03,04,05,06,07,08,09,10,11,12,1.0,1.0,1.0*30
$GPRMC,034726.042,A,5501.786,N,08259.280,E,038.9,242.9,300323,000.0,W*72
$GPGGA,034727.042,5501.778,N,08259.266,E,1,12,1.0,0.0,M,0.0,M,,*60
$GPGSA,A,3,01,02,03,04,05,06,07,08,09,10,11,12,1.0,1.0,1.0*30
$GPRMC,034727.042,A,5501.778,N,08259.266,E,038.9,242.9,300323,000.0,W*7A
$GPGGA,034728.042,5501.771,N,08259.252,E,1,12,1.0,0.0,M,0.0,M,,*61
$GPGSA,A,3,01,02,03,04,05,06,07,08,09,10,11,12,1.0,1.0,1.0*30
$GPRMC,034728.042,A,5501.771,N,08259.252,E,038.9,242.9,300323,000.0,W*7B
$GPGGA,034729.042,5501.764,N,08259.238,E,1,12,1.0,0.0,M,0.0,M,,*68
$GPGSA,A,3,01,02,03,04,05,06,07,08,09,10,11,12,1.0,1.0,1.0*30
$GPRMC,034729.042,A,5501.764,N,08259.238,E,038.9,242.9,300323,000.0,W*72
$GPGGA,034730.042,5501.757,N,08259.224,E,1,12,1.0,0.0,M,0.0,M,,*6D
$GPGSA,A,3,01,02,03,04,05,06,07,08,09,10,11,12,1.0,1.0,1.0*30
$GPRMC,034730.042,A,5501.757,N,08259.224,E,038.9,242.9,300323,000.0,W*77
$GPGGA,034731.042,5501.750,N,08259.209,E,1,12,1.0,0.0,M,0.0,M,,*64
$GPGSA,A,3,01,02,03,04,05,06,07,08,09,10,11,12,1.0,1.0,1.0*30
$GPRMC,034731.042,A,5501.750,N,08259.209,E,038.9,242.9,300323,000.0,W*7E
$GPGGA,034732.042,5501.743,N,08259.195,E,1,12,1.0,0.0,M,0.0,M,,*63
$GPGSA,A,3,01,02,03,04,05,06,07,08,09,10,11,12,1.0,1.0,1.0*30
$GPRMC,034732.042,A,5501.743,N,08259.195,E,038.9,242.9,300323,000.0,W*79
$GPGGA,034733.042,5501.735,N,08259.181,E,1,12,1.0,0.0,M,0.0,M,,*66
$GPGSA,A,3,01,02,03,04,05,06,07,08,09,10,11,12,1.0,1.0,1.0*30
$GPRMC,034733.042,A,5501.735,N,08259.181,E,038.9,242.9,300323,000.0,W*7C
$GPGGA,034734.042,5501.728,N,08259.167,E,1,12,1.0,0.0,M,0.0,M,,*65
$GPGSA,A,3,01,02,03,04,05,06,07,08,09,10,11,12,1.0,1.0,1.0*30
$GPRMC,034734.042,A,5501.728,N,08259.167,E,038.9,242.9,300323,000.0,W*7F
$GPGGA,034735.042,5501.721,N,08259.153,E,1,12,1.0,0.0,M,0.0,M,,*6A
$GPGSA,A,3,01,02,03,04,05,06,07,08,09,10,11,12,1.0,1.0,1.0*30
$GPRMC,034735.042,A,5501.721,N,08259.153,E,038.9,242.9,300323,000.0,W*70
$GPGGA,034736.042,5501.714,N,08259.139,E,1,12,1.0,0.0,M,0.0,M,,*63
$GPGSA,A,3,01,02,03,04,05,06,07,08,09,10,11,12,1.0,1.0,1.0*30
$GPRMC,034736.042,A,5501.714,N,08259.139,E,038.9,242.9,300323,000.0,W*79
$GPGGA,034737.042,5501.707,N,08259.125,E,1,12,1.0,0.0,M,0.0,M,,*6D
$GPGSA,A,3,01,02,03,04,05,06,07,08,09,10,11,12,1.0,1.0,1.0*30
$GPRMC,034737.042,A,5501.707,N,08259.125,E,038.9,242.9,300323,000.0,W*77
$GPGGA,034738.042,5501.700,N,08259.111,E,1,12,1.0,0.0,M,0.0,M,,*62
$GPGSA,A,3,01,02,03,04,05,06,07,08,09,10,11,12,1.0,1.0,1.0*30
$GPRMC,034738.042,A,5501.700,N,08259.111,E,038.9,242.9,300323,000.0,W*78
$GPGGA,034739.042,5501.692,N,08259.097,E,1,12,1.0,0.0,M,0.0,M,,*66
$GPGSA,A,3,01,02,03,04,05,06,07,08,09,10,11,12,1.0,1.0,1.0*30
$GPRMC,034739.042,A,5501.692,N,08259.097,E,038.9,242.9,300323,000.0,W*7C
$GPGGA,034740.042,5501.685,N,08259.083,E,1,12,1.0,0.0,M,0.0,M,,*6B
$GPGSA,A,3,01,02,03,04,05,06,07,08,09,10,11,12,1.0,1.0,1.0*30
$GPRMC,034740.042,A,5501.685,N,08259.083,E,038.9,242.9,300323,000.0,W*71
$GPGGA,034741.042,5501.678,N,08259.069,E,1,12,1.0,0.0,M,0.0,M,,*6C
$GPGSA,A,3,01,02,03,04,05,06,07,08,09,10,11,12,1.0,1.0,1.0*30
$GPRMC,034741.042,A,5501.678,N,08259.069,E,038.9,242.9,300323,000.0,W*76
$GPGGA,034742.042,5501.671,N,08259.055,E,1,12,1.0,0.0,M,0.0,M,,*69
$GPGSA,A,3,01,02,03,04,05,06,07,08,09,10,11,12,1.0,1.0,1.0*30
$GPRMC,034742.042,A,5501.671,N,08259.055,E,038.9,242.9,300323,000.0,W*73
